{
  "travels": [
    {
      "city": "Vienna, Austria",
      "lat": 48.2082,
      "lng": 16.3738,
      "year": 2025,
      "conference": "VIS",
      "dateString": "Nov 02-08 '25"
    },
    {
      "city": "Paphos, Cyprus",
      "lat": 34.7720,
      "lng": 32.4297,
      "year": 2026,
      "conference": "IUI",
      "dateString": "Mar 22-27 '26"
    },
    {
      "city": "Barcelona, Spain",
      "lat": 41.3851,
      "lng": 2.1734,
      "year": 2026,
      "conference": "CHI",
      "dateString": "Apr 13-17 '26"
    },
    {
      "city": "Yokohama, Japan",
      "lat": 35.4437,
      "lng": 139.6380,
      "year": 2025,
      "conference": "CHI"
    },
    {
      "city": "Cagliari, Italy",
      "lat": 39.2238,
      "lng": 9.1217,
      "year": 2025,
      "conference": "IUI"
    },
    {
      "city": "Luxembourg City, Luxembourg",
      "lat": 49.6116,
      "lng": 6.1319,
      "year": 2025,
      "conference": "EuroVis"
    },
    {
      "city": "Vienna, Austria",
      "lat": 48.2082,
      "lng": 16.3738,
      "year": 2025,
      "conference": "VIS"
    }
  ]
}
